{
  "type": "FeatureCollection",
  "features": [
    {"type":"Feature","properties":{"UNIT_CODE":"ACAD","UNIT_NAME":"Acadia"},"geometry":{"type":"Point","coordinates":[-68.2733,44.3386]}},
    {"type":"Feature","properties":{"UNIT_CODE":"ARCH","UNIT_NAME":"Arches"},"geometry":{"type":"Point","coordinates":[-109.5925,38.7331]}},
    {"type":"Feature","properties":{"UNIT_CODE":"BADL","UNIT_NAME":"Badlands"},"geometry":{"type":"Point","coordinates":[-102.3397,43.8554]}},
    {"type":"Feature","properties":{"UNIT_CODE":"BIBE","UNIT_NAME":"Big Bend"},"geometry":{"type":"Point","coordinates":[-103.2520,29.1275]}},
    {"type":"Feature","properties":{"UNIT_CODE":"BISC","UNIT_NAME":"Biscayne"},"geometry":{"type":"Point","coordinates":[-80.4300,25.4824]}},
    {"type":"Feature","properties":{"UNIT_CODE":"BLCA","UNIT_NAME":"Black Canyon of the Gunnison"},"geometry":{"type":"Point","coordinates":[-107.7242,38.5754]}},
    {"type":"Feature","properties":{"UNIT_CODE":"BRCA","UNIT_NAME":"Bryce Canyon"},"geometry":{"type":"Point","coordinates":[-112.1871,37.5930]}},
    {"type":"Feature","properties":{"UNIT_CODE":"CANY","UNIT_NAME":"Canyonlands"},"geometry":{"type":"Point","coordinates":[-109.8782,38.2000]}},
    {"type":"Feature","properties":{"UNIT_CODE":"CARE","UNIT_NAME":"Capitol Reef"},"geometry":{"type":"Point","coordinates":[-111.2615,38.0877]}},
    {"type":"Feature","properties":{"UNIT_CODE":"CAVE","UNIT_NAME":"Carlsbad Caverns"},"geometry":{"type":"Point","coordinates":[-104.5567,32.1479]}},
    {"type":"Feature","properties":{"UNIT_CODE":"CHIS","UNIT_NAME":"Channel Islands"},"geometry":{"type":"Point","coordinates":[-119.7018,34.0069]}},
    {"type":"Feature","properties":{"UNIT_CODE":"CONG","UNIT_NAME":"Congaree"},"geometry":{"type":"Point","coordinates":[-80.7784,33.7948]}},
    {"type":"Feature","properties":{"UNIT_CODE":"CRLA","UNIT_NAME":"Crater Lake"},"geometry":{"type":"Point","coordinates":[-122.1685,42.9446]}},
    {"type":"Feature","properties":{"UNIT_CODE":"CUVA","UNIT_NAME":"Cuyahoga Valley"},"geometry":{"type":"Point","coordinates":[-81.5678,41.2808]}},
    {"type":"Feature","properties":{"UNIT_CODE":"DENA","UNIT_NAME":"Denali"},"geometry":{"type":"Point","coordinates":[-151.1926,63.3333]}},
    {"type":"Feature","properties":{"UNIT_CODE":"DEVA","UNIT_NAME":"Death Valley"},"geometry":{"type":"Point","coordinates":[-117.0794,36.5054]}},
    {"type":"Feature","properties":{"UNIT_CODE":"DRTO","UNIT_NAME":"Dry Tortugas"},"geometry":{"type":"Point","coordinates":[-82.8732,24.6285]}},
    {"type":"Feature","properties":{"UNIT_CODE":"EVER","UNIT_NAME":"Everglades"},"geometry":{"type":"Point","coordinates":[-80.9001,25.2866]}},
    {"type":"Feature","properties":{"UNIT_CODE":"GAAR","UNIT_NAME":"Gates of the Arctic"},"geometry":{"type":"Point","coordinates":[-153.2917,67.7806]}},
    {"type":"Feature","properties":{"UNIT_CODE":"GATE","UNIT_NAME":"Gateway Arch"},"geometry":{"type":"Point","coordinates":[-90.1851,38.6247]}},
    {"type":"Feature","properties":{"UNIT_CODE":"GLAC","UNIT_NAME":"Glacier"},"geometry":{"type":"Point","coordinates":[-113.7870,48.7596]}},
    {"type":"Feature","properties":{"UNIT_CODE":"GLBA","UNIT_NAME":"Glacier Bay"},"geometry":{"type":"Point","coordinates":[-136.9026,58.6658]}},
    {"type":"Feature","properties":{"UNIT_CODE":"GRBA","UNIT_NAME":"Great Basin"},"geometry":{"type":"Point","coordinates":[-114.2132,38.9200]}},
    {"type":"Feature","properties":{"UNIT_CODE":"GRCA","UNIT_NAME":"Grand Canyon"},"geometry":{"type":"Point","coordinates":[-112.1401,36.0544]}},
    {"type":"Feature","properties":{"UNIT_CODE":"GRSA","UNIT_NAME":"Great Sand Dunes"},"geometry":{"type":"Point","coordinates":[-105.5943,37.7329]}},
    {"type":"Feature","properties":{"UNIT_CODE":"GRSM","UNIT_NAME":"Great Smoky Mountains"},"geometry":{"type":"Point","coordinates":[-83.5085,35.6118]}},
    {"type":"Feature","properties":{"UNIT_CODE":"GRTE","UNIT_NAME":"Grand Teton"},"geometry":{"type":"Point","coordinates":[-110.8024,43.7904]}},
    {"type":"Feature","properties":{"UNIT_CODE":"GUMO","UNIT_NAME":"Guadalupe Mountains"},"geometry":{"type":"Point","coordinates":[-104.8674,31.9231]}},
    {"type":"Feature","properties":{"UNIT_CODE":"HALE","UNIT_NAME":"Haleakalā"},"geometry":{"type":"Point","coordinates":[-156.1551,20.7204]}},
    {"type":"Feature","properties":{"UNIT_CODE":"HAVO","UNIT_NAME":"Hawaiʻi Volcanoes"},"geometry":{"type":"Point","coordinates":[-155.4716,19.3833]}},
    {"type":"Feature","properties":{"UNIT_CODE":"HOSP","UNIT_NAME":"Hot Springs"},"geometry":{"type":"Point","coordinates":[-93.0552,34.5217]}},
    {"type":"Feature","properties":{"UNIT_CODE":"INDU","UNIT_NAME":"Indiana Dunes"},"geometry":{"type":"Point","coordinates":[-87.0528,41.6534]}},
    {"type":"Feature","properties":{"UNIT_CODE":"ISLE","UNIT_NAME":"Isle Royale"},"geometry":{"type":"Point","coordinates":[-88.5506,48.0000]}},
    {"type":"Feature","properties":{"UNIT_CODE":"JOTR","UNIT_NAME":"Joshua Tree"},"geometry":{"type":"Point","coordinates":[-115.9010,33.8734]}},
    {"type":"Feature","properties":{"UNIT_CODE":"KATM","UNIT_NAME":"Katmai"},"geometry":{"type":"Point","coordinates":[-155.0179,58.5000]}},
    {"type":"Feature","properties":{"UNIT_CODE":"KEFJ","UNIT_NAME":"Kenai Fjords"},"geometry":{"type":"Point","coordinates":[-150.1878,59.9196]}},
    {"type":"Feature","properties":{"UNIT_CODE":"KICA","UNIT_NAME":"Kings Canyon"},"geometry":{"type":"Point","coordinates":[-118.5551,36.8879]}},
    {"type":"Feature","properties":{"UNIT_CODE":"KOBK","UNIT_NAME":"Kobuk Valley"},"geometry":{"type":"Point","coordinates":[-159.2002,67.3458]}},
    {"type":"Feature","properties":{"UNIT_CODE":"LACL","UNIT_NAME":"Lake Clark"},"geometry":{"type":"Point","coordinates":[-153.5686,60.4126]}},
    {"type":"Feature","properties":{"UNIT_CODE":"LAVO","UNIT_NAME":"Lassen Volcanic"},"geometry":{"type":"Point","coordinates":[-121.4083,40.4977]}},
    {"type":"Feature","properties":{"UNIT_CODE":"MACA","UNIT_NAME":"Mammoth Cave"},"geometry":{"type":"Point","coordinates":[-86.1003,37.1862]}},
    {"type":"Feature","properties":{"UNIT_CODE":"MEVE","UNIT_NAME":"Mesa Verde"},"geometry":{"type":"Point","coordinates":[-108.4618,37.2309]}},
    {"type":"Feature","properties":{"UNIT_CODE":"MORA","UNIT_NAME":"Mount Rainier"},"geometry":{"type":"Point","coordinates":[-121.7269,46.8799]}},
    {"type":"Feature","properties":{"UNIT_CODE":"NERI","UNIT_NAME":"New River Gorge"},"geometry":{"type":"Point","coordinates":[-80.9998,37.9307]}},
    {"type":"Feature","properties":{"UNIT_CODE":"NOCA","UNIT_NAME":"North Cascades"},"geometry":{"type":"Point","coordinates":[-121.2069,48.7718]}},
    {"type":"Feature","properties":{"UNIT_CODE":"NPSA","UNIT_NAME":"National Park of American Samoa"},"geometry":{"type":"Point","coordinates":[-170.6832,-14.2502]}},
    {"type":"Feature","properties":{"UNIT_CODE":"OLYM","UNIT_NAME":"Olympic"},"geometry":{"type":"Point","coordinates":[-123.6044,47.8021]}},
    {"type":"Feature","properties":{"UNIT_CODE":"PEFO","UNIT_NAME":"Petrified Forest"},"geometry":{"type":"Point","coordinates":[-109.7978,35.0682]}},
    {"type":"Feature","properties":{"UNIT_CODE":"PINN","UNIT_NAME":"Pinnacles"},"geometry":{"type":"Point","coordinates":[-121.1825,36.4906]}},
    {"type":"Feature","properties":{"UNIT_CODE":"REDW","UNIT_NAME":"Redwood"},"geometry":{"type":"Point","coordinates":[-124.0046,41.2132]}},
    {"type":"Feature","properties":{"UNIT_CODE":"ROMO","UNIT_NAME":"Rocky Mountain"},"geometry":{"type":"Point","coordinates":[-105.6836,40.3428]}},
    {"type":"Feature","properties":{"UNIT_CODE":"SAGU","UNIT_NAME":"Saguaro"},"geometry":{"type":"Point","coordinates":[-111.1663,32.2967]}},
    {"type":"Feature","properties":{"UNIT_CODE":"SEQU","UNIT_NAME":"Sequoia"},"geometry":{"type":"Point","coordinates":[-118.5657,36.4864]}},
    {"type":"Feature","properties":{"UNIT_CODE":"SHEN","UNIT_NAME":"Shenandoah"},"geometry":{"type":"Point","coordinates":[-78.4678,38.5976]}},
    {"type":"Feature","properties":{"UNIT_CODE":"THRO","UNIT_NAME":"Theodore Roosevelt"},"geometry":{"type":"Point","coordinates":[-103.4300,46.9790]}},
    {"type":"Feature","properties":{"UNIT_CODE":"VIIS","UNIT_NAME":"Virgin Islands"},"geometry":{"type":"Point","coordinates":[-64.7421,18.3438]}},
    {"type":"Feature","properties":{"UNIT_CODE":"VOYA","UNIT_NAME":"Voyageurs"},"geometry":{"type":"Point","coordinates":[-92.8383,48.4839]}},
    {"type":"Feature","properties":{"UNIT_CODE":"WHSA","UNIT_NAME":"White Sands"},"geometry":{"type":"Point","coordinates":[-106.3255,32.7872]}},
    {"type":"Feature","properties":{"UNIT_CODE":"WICA","UNIT_NAME":"Wind Cave"},"geometry":{"type":"Point","coordinates":[-103.4796,43.5827]}},
    {"type":"Feature","properties":{"UNIT_CODE":"WRST","UNIT_NAME":"Wrangell-St. Elias"},"geometry":{"type":"Point","coordinates":[-142.9857,61.7104]}},
    {"type":"Feature","properties":{"UNIT_CODE":"YELL","UNIT_NAME":"Yellowstone"},"geometry":{"type":"Point","coordinates":[-110.5885,44.4280]}},
    {"type":"Feature","properties":{"UNIT_CODE":"YOSE","UNIT_NAME":"Yosemite"},"geometry":{"type":"Point","coordinates":[-119.5383,37.8651]}},
    {"type":"Feature","properties":{"UNIT_CODE":"ZION","UNIT_NAME":"Zion"},"geometry":{"type":"Point","coordinates":[-113.0263,37.2982]}}
  ]
}